City_ID,City,Lat,Lng,Max Temp,Humidity,Cloudiness,Wind Speed,Country,Date
0,vorgashor,67.5833,63.95,-1.22,93,100,2.3,RU,1717879994
1,springbok,-29.6643,17.8865,10.86,41,44,4.34,ZA,1717879994
2,albany,42.6001,-73.9662,22.54,57,70,0.45,US,1717879994
3,qui nhon,13.7667,109.2333,27.84,73,100,1.48,VN,1717879995
4,impfondo,1.6381,18.0667,22.14,97,99,1.68,CG,1717879995
5,ushuaia,-54.8,-68.3,1.81,69,20,6.69,AR,1717879973
6,port-aux-francais,-49.35,70.2167,6.15,96,100,13.39,TF,1717879995
7,tazacorte,28.629,-17.9293,21.75,87,100,4.63,ES,1717879995
8,valparaiso,-33.0393,-71.6273,17.86,81,100,8.75,CL,1717879859
9,invercargill,-46.4,168.35,7.23,89,100,1.34,NZ,1717879995
10,huarmey,-10.0681,-78.1522,21.28,73,21,4.33,PE,1717879996
11,kentville,45.0835,-64.4988,18.01,89,74,1.54,CA,1717879996
12,waitangi,-43.9535,-176.5597,9.9,82,3,3.13,NZ,1717879996
13,ilulissat,69.2167,-51.1,4.01,81,0,2.57,GL,1717879996
14,rudnya,54.947,31.0934,10.09,90,65,1.92,RU,1717879996
15,stanley,54.868,-1.6985,10.16,66,20,9.26,GB,1717879997
16,iqaluit,63.7506,-68.5145,1.85,64,75,7.2,CA,1717879997
17,adamstown,-25.066,-130.1015,22.74,81,39,6.06,PN,1717879997
18,port elizabeth,-33.918,25.5701,13.95,78,99,1.3,ZA,1717879997
19,tolanaro,-25.0319,46.9987,21.04,78,75,7.2,MG,1717879997
20,hovd,48.0056,91.6419,17.53,35,22,3.47,MN,1717879997
21,port alfred,-33.5906,26.891,14.75,77,45,4.35,ZA,1717879998
22,katsuren-haebaru,26.3369,127.8719,26.21,97,100,3.09,JP,1717879998
23,blackmans bay,-43.0167,147.3167,8.07,91,33,0.45,AU,1717879998
24,walvis bay,-22.9575,14.5053,21.53,17,28,4.12,NA,1717879998
25,puerto natales,-51.7236,-72.4875,2.25,100,75,2.06,CL,1717879998
26,tindouf,27.6711,-8.1474,31.25,15,0,6.69,DZ,1717879998
27,gstaad,46.4721,7.2869,16.67,96,100,0.8,CH,1717879999
28,angaur state,6.906,134.13,28.52,77,100,4.59,PW,1717879999
29,hammerfest,70.6634,23.6821,7.25,87,75,5.66,NO,1717879999
30,ambon,-3.6954,128.1814,26.6,15,100,5.34,ID,1717879999
31,igrim,63.1906,64.4162,9.1,69,39,2.38,RU,1717879999
32,papatowai,-46.5619,169.4708,8.59,81,100,2.71,NZ,1717880000
33,grytviken,-54.2811,-36.5092,-1.44,95,100,3.61,GS,1717880000
34,praia da vitoria,38.7333,-27.0667,20.98,83,40,3.77,PT,1717880000
35,mahina,-17.5065,-149.489,25.87,83,75,2.06,PF,1717880000
36,cole harbour,44.6724,-63.4751,13.66,95,100,5.66,CA,1717880001
37,isabela,6.7085,121.9711,25.86,89,100,1.83,PH,1717880001
38,iskateley,67.6803,53.1512,1.64,86,87,2.69,RU,1717880001
39,kulhudhuffushi,6.6221,73.07,28.36,79,96,6.93,MV,1717880002
40,fort mcmurray,56.7268,-111.381,8.77,71,100,4.12,CA,1717880002
41,san patricio,28.017,-97.5169,35.65,41,5,7.69,US,1717880003
42,college,64.8569,-147.8028,26.36,27,75,6.69,US,1717880003
43,nsanje,-16.92,35.262,21.27,75,100,3.3,MW,1717880004
44,shantobe,52.4581,68.1839,17.26,90,39,4.94,KZ,1717880004
45,aasiaat,68.7098,-52.8699,2.02,83,9,3.42,GL,1717880004
46,brunico,46.7958,11.9364,17.28,95,100,0.47,IT,1717879931
47,luganville,-15.5333,167.1667,26.02,82,100,3.23,VU,1717880004
48,dudinka,69.4058,86.1778,2.04,97,86,4.02,RU,1717879776
49,yellowknife,62.456,-114.3525,15.23,50,75,4.63,CA,1717879920
50,ponta delgada,37.7333,-25.6667,19.4,82,40,4.63,PT,1717880005
51,west island,-12.1568,96.8225,26.99,78,75,2.57,CC,1717880005
52,constantia,44.1833,28.65,19.38,68,17,2.75,RO,1717880005
53,edinburgh of the seven seas,-37.0676,-12.3116,16.41,90,100,14.62,SH,1717880006
54,warrenton,-28.114,24.8475,9.86,46,0,3.4,ZA,1717880006
55,jekulo,-6.8057,110.9262,24.54,90,81,0.96,ID,1717880006
56,bethel,41.3712,-73.414,25.96,50,40,5.66,US,1717880006
57,sarangarh,21.6,83.0833,31.32,48,99,3.44,IN,1717880006
58,carnarvon,-24.8667,113.6333,23.45,70,92,8.67,AU,1717880006
59,isafjordur,66.0755,-23.124,3.21,82,90,3.1,IS,1717880007
60,sunne,59.8376,13.143,9.23,97,100,2.42,SE,1717880007
61,chemolgan,43.1897,76.5292,17.81,38,6,3.16,KZ,1717880007
62,georgetown,5.4112,100.3354,27.96,83,40,1.54,MY,1717880007
63,mount gambier,-37.8333,140.7667,6.96,89,18,1.61,AU,1717879734
64,fort bragg,35.139,-79.006,32.33,30,0,3.09,US,1717880007
65,karasburg,-28.0167,18.75,10.57,39,1,4.99,NA,1717880008
66,tual,-5.6667,132.75,26.28,84,43,9.49,ID,1717880008
67,pak chong,14.708,101.4161,27.25,85,82,2.99,TH,1717880008
68,delta del tigre,-34.7633,-56.3853,23.06,83,0,4.63,UY,1717880008
69,atafu village,-8.5421,-172.5159,28.85,74,100,3.71,TK,1717880009
70,cromwell,41.5951,-72.6454,25.58,51,100,7.2,US,1717880009
71,nuuk,64.1835,-51.7216,5.34,87,75,19.03,GL,1717880009
72,punta arenas,-53.15,-70.9167,3.06,70,0,1.03,CL,1717880009
73,chonchi,-42.6128,-73.8092,12.84,93,100,4.92,CL,1717880009
74,olonkinbyen,70.9221,-8.7187,0.61,91,64,5.75,SJ,1717880010
75,ola,59.5833,151.2833,5.08,97,100,1.43,RU,1717880010
76,udachny,66.4167,112.4,13.58,80,90,2.77,RU,1717880010
77,pacific grove,36.6177,-121.9166,20.2,76,20,4.12,US,1717880010
78,cockburn town,21.4612,-71.1419,28.05,83,99,5.08,TC,1717880011
79,sao vicente,-23.9631,-46.3919,28.1,88,100,2.24,BR,1717880011
80,turpan,42.9333,89.1667,31.5,17,86,2.17,CN,1717880011
81,port mathurin,-19.6833,63.4167,23.82,79,33,9.31,MU,1717880011
82,uliastay,47.7417,96.8444,10.48,50,6,1.98,MN,1717880012
83,andalusia,31.3085,-86.4833,32.62,42,95,1.48,US,1717880012
84,enewetak,11.3474,162.3373,28.29,83,19,7.02,MH,1717880012
85,tiksi,71.6872,128.8694,0.56,89,65,3.68,RU,1717880012
86,port lincoln,-34.7333,135.8667,12.18,74,50,3.56,AU,1717880013
87,portland,45.5234,-122.6762,27.9,44,75,2.57,US,1717879268
88,matoury,4.8483,-52.3317,30.98,70,0,4.63,GF,1717880013
89,thompson,55.7435,-97.8558,5.09,93,100,4.12,CA,1717880013
90,petropavlovsk-kamchatsky,53.0452,158.6483,11.33,63,75,6.26,RU,1717880014
91,yashkul',46.1711,45.3435,24.04,40,39,3.48,RU,1717880014
92,nehoiu,45.4167,26.3,15.53,77,2,2.7,RO,1717880014
93,khandyga,62.6667,135.6,11.75,46,0,2.64,RU,1717880015
94,al bawiti,28.3492,28.8659,29.07,22,0,4.3,EG,1717880015
95,puerto armuelles,8.2833,-82.8667,31.99,72,98,1.79,PA,1717880015
96,kirakira,-10.4544,161.9205,27.74,87,100,4.99,SB,1717880015
97,nemuro,43.3236,145.575,10.5,94,100,6.05,JP,1717880016
98,la'ie,21.6477,-157.9253,28.98,76,7,3.58,US,1717880016
99,st. john's,47.5649,-52.7093,16.66,72,20,6.69,CA,1717879730
100,tagta,41.6504,59.9164,26.97,39,0,2.06,TM,1717880016
101,hawaiian paradise park,19.5933,-154.9731,26.73,71,40,3.09,US,1717880016
102,nanao,37.05,136.9667,22.32,88,100,0.6,JP,1717880017
103,abou el hassan,36.4166,1.1962,23.69,42,0,3.96,DZ,1717880017
104,bemidji,47.4736,-94.8803,22.17,42,75,7.72,US,1717880017
105,qaqortoq,60.7167,-46.0333,3.87,98,100,1.8,GL,1717880017
106,rongelap,11.1635,166.8941,28.38,82,20,7.27,MH,1717880017
107,kyela,-9.5833,33.85,19.87,74,7,1.22,TZ,1717880018
108,kodiak,57.79,-152.4072,7.73,93,100,10.8,US,1717880018
109,lihue,21.9789,-159.3672,28.58,73,75,4.12,US,1717880018
110,bilibino,68.0546,166.4372,8.01,42,0,2.31,RU,1717880018
111,badger,64.8,-147.5333,26.31,25,0,6.69,US,1717880018
112,sarandi,-23.4436,-51.8739,26.75,47,0,2.57,BR,1717880018
113,qarazhal,48.0078,70.7903,23.35,36,13,6.25,KZ,1717880019
114,rauma,61.1272,21.5113,11.02,92,94,4.22,FI,1717880019
115,miyaly,48.8844,53.7836,21.07,68,63,4.83,KZ,1717880019
116,ancud,-41.8697,-73.8203,12.49,92,100,7.03,CL,1717880019
117,sungai penuh,-2.0833,101.3833,18.6,96,94,1.13,ID,1717880019
118,sandnessjoen,66.0217,12.6316,12.29,64,82,5.02,NO,1717880020
119,sablayan,12.8346,120.769,27.56,79,98,3.07,PH,1717880020
120,tralee,52.2704,-9.7026,8.95,80,20,2.85,IE,1717880020
121,bredasdorp,-34.5322,20.0403,9.84,87,0,1.18,ZA,1717880020
122,hermanus,-34.4187,19.2345,10.45,79,0,3.2,ZA,1717880020
123,rio grande,-32.035,-52.0986,20.06,90,100,4.37,BR,1717880021
124,serchhip,23.3,92.8333,22.24,99,90,0.78,IN,1717880021
125,flying fish cove,-10.4217,105.6791,25.82,94,100,5.14,CX,1717880021
126,kerikeri,-35.2268,173.9474,17.17,95,100,4.47,NZ,1717880021
127,bumba,2.1833,22.4667,23.53,86,100,1.52,CD,1717880022
128,nar'yan-mar,67.6713,53.087,1.76,85,81,2.71,RU,1717879818
129,fale old settlement,-9.3852,-171.2468,28.8,71,74,3.49,TK,1717880022
130,urucara,-2.5364,-57.76,26.34,94,100,1.37,BR,1717880022
131,jamestown,42.097,-79.2353,21.4,45,0,6.17,US,1717879766
132,itaituba,-4.2761,-55.9836,28.09,89,75,1.54,BR,1717880022
133,santo antonio,-6.3106,-35.4789,24.88,85,97,4.55,BR,1717880023
134,whitehorse,60.7161,-135.0538,21.72,21,75,6.71,CA,1717880023
135,el calafate,-50.3408,-72.2768,3.59,98,100,2.69,AR,1717880023
136,puerto aysen,-45.4,-72.7,7.28,99,100,2.14,CL,1717880023
137,idri,27.5,13.2667,28.87,11,0,4.5,LY,1717880024
138,virginia,37.5481,-77.4467,31.17,41,40,5.66,US,1717879663
139,beloretsk,53.9631,58.3981,15.29,97,100,2.68,RU,1717880024
140,opuwo,-18.0607,13.84,17.15,31,1,2.87,NA,1717880024
141,hamilton,39.1834,-84.5333,26.51,63,75,4.63,US,1717880024
142,cabo san lucas,22.8909,-109.9124,31.45,54,0,5.14,MX,1717879380
143,midvagur,62.0511,-7.1939,7.46,87,75,8.23,FO,1717880025
144,longyearbyen,78.2186,15.6401,2.91,75,75,3.6,SJ,1717880025
145,noumea,-22.2763,166.4572,24.44,99,100,1.92,NC,1717879811
146,boke,10.9409,-14.2967,23.81,93,100,0.31,GN,1717880025
147,sarande,39.8756,20.0053,25.63,72,13,2.09,AL,1717880026
148,ust-nera,64.5667,143.2,6.39,45,96,2.46,RU,1717880026
149,posto fiscal rolim de moura,-13.0833,-62.2667,31.28,34,1,0.72,BR,1717880026
150,newman,37.3138,-121.0208,29.13,17,79,0.51,US,1717880026
151,runka,12.4479,7.3092,31.08,50,53,3.55,NG,1717880027
152,vernon,50.2581,-119.2691,27.94,19,20,1.54,CA,1717880027
153,moscow,55.7522,37.6156,16.29,75,100,4.2,RU,1717879997
154,anadyr,64.75,177.4833,2.28,100,75,5.0,RU,1717879813
155,margaret river,-33.95,115.0667,15.24,86,100,12.19,AU,1717879939
156,yuzhno-kurilsk,44.0306,145.8556,11.32,98,100,3.79,RU,1717880027
157,hithadhoo,-0.6,73.0833,28.39,75,67,4.51,MV,1717880028
158,puerto ayora,-0.7393,-90.3518,26.98,91,100,1.79,EC,1717880028
159,lebu,-37.6167,-73.65,11.66,94,100,6.98,CL,1717880028
160,mejit,10.2753,170.8646,28.47,80,75,6.71,MH,1717880028
161,oyon,-10.6681,-76.7731,9.46,33,1,3.25,PE,1717880029
162,san antonio oeste,-40.7319,-64.9477,15.29,78,100,1.07,AR,1717880029
163,saranac lake,44.3295,-74.1313,16.78,84,100,6.17,US,1717880029
164,ad dilam,23.9915,47.1627,36.23,9,0,5.01,SA,1717880029
165,charters towers,-20.1,146.2667,10.21,52,0,4.01,AU,1717880030
166,fortuna,40.5982,-124.1573,19.96,72,0,6.17,US,1717880030
167,saldanha,-33.0117,17.9442,12.03,74,41,4.68,ZA,1717880030
168,ribeira grande,38.5167,-28.7,20.43,88,40,5.66,PT,1717880031
169,babayurt,43.6002,46.7789,23.22,57,100,2.95,RU,1717880031
170,qamdo,31.1667,97.2333,7.56,74,32,2.47,CN,1717880031
171,amparafaravola,-17.5833,48.2167,13.66,91,6,1.09,MG,1717880031
172,mhamid,29.82,-5.72,30.43,13,100,9.99,MA,1717880032
173,iquique,-20.2208,-70.1431,20.02,71,54,1.04,CL,1717880032
174,wailua homesteads,22.0669,-159.378,28.24,79,75,4.12,US,1717880032
175,tofol,5.3248,163.0078,28.66,78,88,5.54,FM,1717880032
176,vadso,70.0744,29.7487,3.49,93,100,7.72,NO,1717880033
177,puerto santa,-8.9906,-78.6456,20.06,78,11,4.69,PE,1717880033
178,qusmuryn,52.4503,64.6311,18.46,86,44,4.2,KZ,1717880033
179,veraval,20.9,70.3667,29.54,75,0,6.66,IN,1717880034
180,hepo,23.4308,115.8299,23.62,99,58,0.6,CN,1717880034
181,whangarei,-35.7317,174.3239,16.26,96,100,3.63,NZ,1717879914
182,talnakh,69.4865,88.3972,1.78,96,100,4.18,RU,1717880034
183,east ballina,-28.8667,153.5833,12.7,79,1,4.63,AU,1717880034
184,new norfolk,-42.7826,147.0587,8.72,90,81,1.27,AU,1717880035
185,zapala,-38.8992,-70.0544,11.62,49,100,3.05,AR,1717880035
186,cidreira,-30.1811,-50.2056,17.73,90,70,4.43,BR,1717880035
187,saipan,15.1355,145.701,26.39,89,40,3.6,MP,1717880035
188,tenno,39.9,139.9667,17.83,85,100,3.78,JP,1717880035
189,prado,-17.3411,-39.2208,23.26,85,0,3.67,BR,1717880035
190,deqen,29.9618,90.7188,9.64,71,2,2.2,CN,1717880036
191,gadzhiyevo,69.2551,33.3362,4.03,89,100,6.97,RU,1717880036
192,meadow lake,34.8014,-106.5436,36.71,12,99,2.36,US,1717880036
193,labytnangi,66.6572,66.4183,0.77,80,24,2.42,RU,1717880036
194,cherdyn',60.403,56.4787,11.52,79,96,1.82,RU,1717880036
195,kununurra,-15.7667,128.7333,10.99,76,0,0.0,AU,1717880036
196,acarau,-2.8856,-40.12,26.01,85,29,4.54,BR,1717880037
197,kiunga,-6.1219,141.2906,23.33,100,100,0.75,PG,1717880037
198,pangoa,-12.1167,-73.0,28.8,50,21,1.34,PE,1717880037
199,bireun,5.203,96.7009,25.98,81,80,1.72,ID,1717880037
200,howrah,22.5892,88.3103,31.0,84,20,6.17,IN,1717880037
201,malaya purga,56.5567,53.0043,14.84,91,14,2.17,RU,1717880038
202,fontenay-tresigny,48.7065,2.8705,15.87,67,0,3.6,FR,1717880038
203,mbandjok,4.45,11.9,19.61,97,100,1.91,CM,1717880038
204,miraflores de la sierra,40.8155,-3.7621,13.63,86,83,1.55,ES,1717880038
205,carbonear,47.7332,-53.2148,16.91,87,67,0.64,CA,1717880038
206,ekibastuz,51.6667,75.3667,18.31,81,98,2.26,KZ,1717880038
207,bijie,27.3125,105.2942,15.56,96,100,1.04,CN,1717880039
208,acapulco de juarez,16.8634,-99.8901,27.79,59,88,4.23,MX,1717880039
209,kolyvan',55.3053,82.7391,15.79,96,68,3.1,RU,1717880039
210,waverly,42.7392,-84.6208,21.09,52,100,2.06,US,1717880039
211,saint-philippe,-21.3585,55.7679,20.77,85,79,1.72,RE,1717880039
212,san salvador,13.6894,-89.1872,26.13,97,75,4.12,SV,1717879807
213,malabar,-33.9667,151.25,12.8,84,0,1.54,AU,1717880039
214,salahonda,2.1019,-78.7217,26.92,81,78,5.6,CO,1717880040
215,illizi,26.4833,8.4667,34.89,11,0,3.83,DZ,1717880040
216,crane,31.3974,-102.3501,38.79,18,89,8.94,US,1717880040
217,uige,-7.6087,15.0613,21.99,73,99,1.03,AO,1717880040
218,colonia,50.9333,6.95,16.36,66,0,5.14,DE,1717879775
219,vitebsk,55.1905,30.2033,9.52,82,52,0.91,BY,1717880040
220,kapa'a,22.0752,-159.319,28.99,78,75,4.12,US,1717880041
221,codrington,-38.2667,141.9667,11.25,71,100,3.83,AU,1717880041
222,karratha,-20.7377,116.8463,18.25,61,0,4.16,AU,1717880041
223,klaksvik,62.2266,-6.589,7.51,83,95,9.28,FO,1717880041
224,palmer,42.1584,-72.3287,23.52,53,75,6.69,US,1717880041
225,port saint john's,-31.6229,29.5448,14.48,77,2,3.01,ZA,1717880041
226,xindi,29.8167,113.4667,20.95,94,100,2.52,CN,1717880042
227,ulsteinvik,62.3432,5.8487,10.07,92,100,0.45,NO,1717880042
228,vilyuchinsk,52.9306,158.4028,12.15,70,100,3.8,RU,1717880042
229,tokar,18.4254,37.729,33.27,42,6,3.01,SD,1717880042
230,kingston,17.997,-76.7936,31.53,70,40,9.26,JM,1717879757
231,labrador city,52.9463,-66.9114,25.95,31,75,3.09,CA,1717880042
232,stephenville,32.2207,-98.2023,36.07,38,0,5.66,US,1717880043
233,cooma,-36.2333,149.1333,5.46,95,68,0.5,AU,1717880043
234,taro,-8.3862,115.28,22.0,100,86,0.62,ID,1717880043
235,mitsamiouli,-11.3847,43.2844,26.31,70,2,5.14,KM,1717880043
236,dongkan,33.9997,119.8308,22.84,58,97,2.94,CN,1717880043
237,cambria,35.5641,-121.0808,30.13,73,99,2.56,US,1717880044
238,avarua,-21.2078,-159.775,24.03,57,20,2.57,CK,1717880044
239,fort st. john,56.2499,-120.8529,9.94,57,100,4.63,CA,1717880031
240,pico truncado,-46.7949,-67.9573,4.06,88,100,5.27,AR,1717880044
241,klyuchi,52.2667,79.1667,16.66,84,27,1.72,RU,1717880044
242,presidente epitacio,-21.7633,-52.1156,26.09,37,19,2.46,BR,1717880044
243,coruripe,-10.1256,-36.1756,24.08,88,6,3.61,BR,1717880044
244,tucupita,9.0622,-62.051,32.17,55,71,3.02,VE,1717880045
245,utrik,11.2278,169.8474,28.22,82,56,7.59,MH,1717880045
246,sokoni,-6.4333,39.55,26.92,72,2,7.95,TZ,1717880045
247,vilyuysk,63.7553,121.6247,12.22,60,1,1.79,RU,1717880045
248,east london,-33.0153,27.9116,14.5,75,10,4.6,ZA,1717880045
249,llanes,43.4198,-4.7549,16.88,93,100,3.48,ES,1717880045
250,olds,51.7834,-114.102,8.25,85,100,6.62,CA,1717880046
251,amos,48.5669,-78.1162,10.76,96,100,2.01,CA,1717880046
252,keflavik,64.0049,-22.5624,8.95,66,0,4.12,IS,1717880046
253,sitka,57.0531,-135.33,14.94,58,75,8.23,US,1717880046
254,kailua-kona,19.6406,-155.9956,27.98,78,20,5.66,US,1717880046
255,touros,-5.1989,-35.4608,25.27,91,31,5.39,BR,1717880046
256,shingu,33.7333,135.9833,19.09,91,100,1.6,JP,1717880047
257,baley,51.6,116.6333,5.36,92,82,0.78,RU,1717880047
258,igarka,67.4667,86.5833,5.01,92,100,4.02,RU,1717880047
259,bandarbeyla,9.4942,50.8122,27.04,78,50,11.92,SO,1717880047
260,mezhdurechenskiy,59.6,65.9333,10.1,84,0,1.5,RU,1717880047
261,ta`u,-14.2336,-169.5144,26.45,73,93,11.02,AS,1717880047
262,dame-marie,18.5667,-74.4167,30.03,72,100,4.53,HT,1717880048
263,batticaloa,7.7102,81.6924,27.37,82,100,1.18,LK,1717880048
264,urzhar,47.093,81.6294,16.44,84,87,1.97,KZ,1717880048
265,alice springs,-23.7,133.8833,3.75,100,0,2.06,AU,1717880048
266,virrat,62.2476,23.78,9.03,86,72,1.69,FI,1717880048
267,scottburgh,-30.2867,30.7532,13.91,77,65,3.21,ZA,1717880048
268,minas de marcona,-15.2119,-75.1103,18.07,59,22,5.04,PE,1717880049
269,peterhead,57.5058,-1.7981,9.22,82,99,7.5,GB,1717880049
270,tura,25.5198,90.2201,24.4,95,1,2.67,IN,1717880049
271,norilsk,69.3535,88.2027,1.9,97,100,4.05,RU,1717880049
272,buka,40.8108,69.1986,24.77,33,0,2.03,UZ,1717880049
273,zarghun shahr,32.8473,68.4457,18.26,33,17,1.32,AF,1717880049
274,lensk,60.7253,114.9278,6.33,93,93,0.99,RU,1717880050
275,la passe,45.5549,-0.8967,18.13,89,25,4.38,FR,1717880050
276,shiqian,27.5225,108.2281,18.84,99,100,1.16,CN,1717880050
277,ulundi,-28.3352,31.4162,10.01,87,4,1.34,ZA,1717880050
278,alofi,-19.0595,-169.9187,24.94,57,40,7.2,NU,1717880050
279,yerofey pavlovich,53.9667,121.9667,11.43,56,99,0.92,RU,1717880050
280,olyokminsk,60.3736,120.4264,9.63,75,64,2.12,RU,1717880051
281,fuzesabony,47.75,20.4167,18.27,88,22,0.82,HU,1717880051
282,saint-pierre,-21.3393,55.4781,20.82,73,20,2.57,RE,1717880051
283,zandvoort,52.3749,4.5341,12.81,80,20,3.13,NL,1717880051
284,trairi,-3.2778,-39.2689,24.76,92,51,3.22,BR,1717880051
285,polyarnyy,69.1989,33.4478,4.16,87,100,6.83,RU,1717880051
286,zahedan,29.4963,60.8629,22.95,14,20,3.09,IR,1717880052
287,plettenberg bay,-34.0527,23.3716,12.59,72,92,0.31,ZA,1717880052
288,antsiranana,-12.2787,49.2917,21.03,87,0,3.21,MG,1717880052
289,bryne,58.7354,5.6477,8.88,90,75,5.66,NO,1717880052
290,eraan,9.0629,117.7016,25.52,87,100,2.31,PH,1717880052
291,meadow lakes,61.6247,-149.6011,20.66,71,0,2.57,US,1717880052
292,alaghsas,17.0187,8.0168,37.53,13,62,4.17,NE,1717880053
293,hassi messaoud,31.6804,6.0729,38.92,8,0,2.57,DZ,1717880053
294,tazovsky,67.4667,78.7,3.25,79,98,3.08,RU,1717880053
295,issa,53.8705,44.8578,17.3,95,3,2.6,RU,1717880053
296,oswego,43.4501,-76.1497,22.97,64,82,3.58,US,1717880053
297,alesund,62.4723,6.1549,10.08,89,75,2.06,NO,1717880053
298,laguna,38.421,-121.4238,31.41,46,0,4.12,US,1717880054
299,alto barinas,8.5931,-70.2261,25.91,89,100,3.02,VE,1717880054
300,beidao,34.5686,105.8933,14.25,76,100,0.94,CN,1717880054
301,port macquarie,-31.4333,152.9167,8.27,80,14,2.52,AU,1717880054
302,mata-utu,-13.2816,-176.1745,27.98,76,99,11.25,WF,1717880054
303,karuzi,-3.125,30.1333,15.53,64,83,1.33,BI,1717880054
304,lompoc,34.6391,-120.4579,24.45,83,100,3.09,US,1717880055
305,nogliki,51.8333,143.1667,5.75,97,100,3.58,RU,1717880055
306,tyuratam,45.6507,63.3156,28.45,23,83,3.73,KZ,1717880055
307,wewak,-3.5534,143.6268,26.12,88,26,1.84,PG,1717880055
308,lucapa,-8.4192,20.7447,21.74,33,24,1.78,AO,1717880055
309,green river,41.5286,-109.4662,29.55,30,33,2.24,US,1717880053
310,upper dir,35.2058,71.8756,16.47,49,37,3.83,PK,1717880055
311,bubaque,11.2833,-15.8333,26.52,75,84,1.98,GW,1717880056
312,vorkuta,67.5,64.0,-1.05,93,100,0.89,RU,1717880056
313,port augusta,-32.5,137.7667,9.2,64,45,1.91,AU,1717880056
314,hilo,19.7297,-155.09,26.85,76,40,3.09,US,1717880056
315,zemio,5.0314,25.1361,21.36,86,97,0.69,CF,1717880056
316,ughelli,5.4899,6.0074,24.12,97,100,2.09,NG,1717880057
317,copala,16.65,-98.9833,30.43,53,70,3.36,MX,1717880057
318,luderitz,-26.6481,15.1594,19.82,31,0,7.08,NA,1717880057
319,lycksele,64.5954,18.6735,10.93,66,18,3.6,SE,1717880057
320,machina,13.1364,10.0492,34.11,34,62,5.81,NG,1717880057
321,salinopolis,-0.6136,-47.3561,27.24,80,100,5.02,BR,1717880058
322,seme,15.1942,-12.9448,37.17,22,66,4.49,SN,1717880058
323,kapuskasing,49.4169,-82.4331,20.05,42,75,7.72,CA,1717880058
324,surgeres,46.1,-0.75,17.98,83,94,3.6,FR,1717880058
325,hotan,37.0997,79.9269,20.59,39,100,2.2,CN,1717880058
326,nadym,65.5333,72.5167,6.09,74,2,4.15,RU,1717880059
327,harper,4.375,-7.7169,25.92,83,69,3.41,LR,1717880059
328,tuapse,44.1125,39.0742,20.19,75,97,2.27,RU,1717880059
329,san carlos del zulia,9.0,-71.9135,33.65,54,49,4.29,VE,1717880059
330,inarajan village,13.2736,144.7484,28.55,92,76,4.07,GU,1717880059
331,antonio enes,-16.2325,39.9086,23.75,84,31,6.84,MZ,1717880059
332,balangiga,11.1097,125.3875,26.08,88,99,1.91,PH,1717880060
333,tonghae,37.5439,129.1069,18.07,89,100,2.23,KR,1717880060
334,vidalia,32.2177,-82.4135,32.97,25,0,0.0,US,1717880060
335,bakanas,44.8081,76.2772,24.57,45,45,3.04,KZ,1717880060
336,masvingo,-20.0637,30.8277,10.49,81,8,4.86,ZW,1717880060
337,san matias,-16.3667,-58.4,31.93,25,1,3.28,BO,1717880061
338,leh,34.1667,77.5833,4.97,52,33,1.85,IN,1717880061
339,chegdomyn,51.1167,133.0167,12.16,92,96,1.38,RU,1717880061
340,thunder bay,48.4001,-89.3168,20.99,40,75,5.14,CA,1717880061
341,hobyo,5.3505,48.5268,26.97,79,97,10.79,SO,1717880061
342,bantogon,6.5333,124.0333,26.11,78,100,1.78,PH,1717880061
343,nova sintra,14.8667,-24.7167,24.39,81,0,5.42,CV,1717880061
344,sola,-13.8833,167.55,26.31,80,99,9.71,VU,1717880062
345,ceeldheer,3.8488,47.1806,25.9,80,100,8.3,SO,1717880062
346,mana,5.6592,-53.7767,27.98,77,14,3.8,GF,1717880062
347,margate,51.3813,1.3862,14.83,67,0,1.34,GB,1717880062
348,kodinsk,58.6881,99.1844,11.91,62,100,2.58,RU,1717880062
349,vidyayevo,69.3191,32.8049,3.35,89,98,7.45,RU,1717880062
350,navia,43.5354,-6.7194,14.47,99,100,2.45,ES,1717880063
351,ust-tsilma,65.441,52.1498,10.34,58,100,2.68,RU,1717880063
352,mili,6.0815,171.735,28.64,78,90,5.64,MH,1717880063
353,coquimbo,-29.9533,-71.3436,15.85,80,75,3.6,CL,1717880063
354,kapoeta,4.7717,33.5903,25.11,70,87,1.84,SS,1717880063
355,freetown,8.484,-13.2299,26.84,78,75,2.06,SL,1717880063
356,callao,-12.0667,-77.15,26.34,77,100,6.17,PE,1717880064
357,gaigeturi,33.4644,126.3183,19.03,100,75,5.14,KR,1717880064
358,pandan,14.0453,124.1694,26.9,84,86,0.84,PH,1717880064
359,leava,-14.3,-178.1667,27.45,75,100,11.3,WF,1717880064
360,conceicao do mato dentro,-19.0372,-43.425,18.79,70,2,1.8,BR,1717880064
361,ifakara,-8.1333,36.6833,23.21,57,82,1.15,TZ,1717880064
362,weno,7.4515,151.8468,26.97,94,100,3.09,FM,1717880065
363,guatrache,-37.6678,-63.5302,18.39,88,100,3.59,AR,1717880065
364,doschatoye,55.3825,42.1072,12.61,80,20,1.24,RU,1717880065
365,bhamo,24.2667,97.2333,23.41,98,46,0.79,MM,1717880065
366,vila velha,-20.3297,-40.2925,23.97,83,40,2.57,BR,1717880065
367,harstad,68.799,16.5293,11.56,96,100,1.79,NO,1717880065
368,shibin al qanatir,30.3127,31.3202,29.45,54,0,3.03,EG,1717880066
369,saurimo,-9.6608,20.3916,18.11,40,38,1.95,AO,1717880066
370,tera,14.0078,0.7531,34.93,34,44,0.88,NE,1717880066
371,loiza,18.4313,-65.8802,33.99,62,20,2.57,PR,1717879892
372,kannus,63.9,23.9,10.24,67,81,1.44,FI,1717880066
373,booue,-0.0921,11.9385,23.43,92,96,0.78,GA,1717880066
374,happy valley-goose bay,53.3168,-60.3315,23.17,43,20,5.66,CA,1717880067
375,larkird,35.4894,66.6641,13.88,43,0,0.51,AF,1717880067
376,northam,51.0333,-4.2167,12.99,73,4,2.89,GB,1717880067
377,puerto maldonado,-12.6,-69.1833,32.22,48,20,2.06,PE,1717880067
378,umba,66.6871,34.3429,6.66,74,96,4.22,RU,1717880067
379,canmore,51.0834,-115.3521,17.71,87,100,1.54,CA,1717879836
380,totness,5.8833,-56.3167,27.87,80,55,3.11,SR,1717880068
381,kayangel,8.0823,134.7173,29.07,74,100,5.66,PW,1717880068
382,ciudad lazaro cardenas,17.9583,-102.2,29.65,59,13,6.09,MX,1717880068
383,santa marta,11.2408,-74.199,31.03,79,40,2.57,CO,1717880044
384,horta,38.5333,-28.6333,20.01,87,40,5.66,PT,1717880068
385,howard springs,-12.497,131.047,17.15,65,2,2.85,AU,1717880068
386,eyl,7.9803,49.8164,27.59,72,93,11.48,SO,1717880069
387,magdagachi,53.45,125.8,10.77,51,100,1.13,RU,1717880069
388,barra de santo antonio,-9.4047,-35.5072,25.6,85,4,4.07,BR,1717880069
389,jiuquan,39.7432,98.5174,20.25,22,98,1.92,CN,1717880069
390,porto novo,6.4965,2.6036,27.9,82,100,4.31,BJ,1717880069
391,inhambane,-23.865,35.3833,20.8,58,100,6.68,MZ,1717880069
392,lazaro cardenas,17.9583,-102.2,29.65,59,13,6.09,MX,1717880068
393,martapura,-3.4167,114.85,26.05,100,100,1.03,ID,1717880070
394,falmouth,50.1544,-5.0711,13.32,71,20,3.6,GB,1717880070
395,dunhua,43.3725,128.2425,11.93,92,34,1.47,CN,1717880070
396,vila franca do campo,37.7167,-25.4333,19.23,99,84,3.33,PT,1717880070
397,kenai,60.5544,-151.2583,16.12,58,100,7.72,US,1717880070
398,chinde,26.8418,88.0763,18.48,74,0,2.8,NP,1717880070
399,yashkino,55.8736,85.4265,13.9,99,49,4.36,RU,1717880071
400,castillos,-34.1667,-53.8333,17.16,97,100,2.21,UY,1717880071
401,muntok,-2.0667,105.1833,25.92,88,94,1.91,ID,1717880071
402,punta del este,-34.9667,-54.95,21.09,86,0,1.79,UY,1717880071
403,magadan,59.5667,150.8,4.74,98,100,2.78,RU,1717880072
404,saudarkrokur,65.7461,-19.6394,3.13,97,68,3.03,IS,1717880072
405,demba,-5.51,22.2667,20.52,40,38,1.06,CD,1717880072
406,rio pardo,-29.9897,-52.3781,19.87,91,81,2.25,BR,1717880072
407,san julian,21.0167,-102.1667,28.74,23,96,4.55,MX,1717880072
408,macka,40.8186,39.6136,20.64,95,71,0.98,TR,1717880072
409,milltown,40.4562,-74.4432,27.47,43,18,4.02,US,1717880072
410,lorengau,-2.0226,147.2712,27.18,82,16,2.21,PG,1717880073
411,maturin,9.75,-63.1767,28.45,75,100,3.98,VE,1717880073
412,guanica,17.9716,-66.908,32.84,75,100,6.7,PR,1717880073
413,gebeit,21.0667,36.3167,35.43,17,85,2.09,SD,1717880073
414,aykhal,66.0,111.5,12.14,84,43,3.15,RU,1717880073
415,richards bay,-28.783,32.0377,14.88,68,34,1.38,ZA,1717880074
416,saiha,22.4833,92.9667,22.04,98,70,1.2,IN,1717880074
417,usogorsk,63.4106,48.6872,15.37,89,100,1.92,RU,1717880074
418,ebon,4.582,168.6964,28.83,77,72,6.73,MH,1717880074
419,nenjiang,49.1833,125.2167,11.45,85,100,2.68,CN,1717880074
420,wulingyuan,29.3494,110.5441,16.27,96,100,1.07,CN,1717880074
421,dhilwan,31.5169,75.35,32.28,33,1,2.38,IN,1717880075
422,sinabang,2.4803,96.3801,25.99,84,95,1.87,ID,1717880075
423,waddan,29.1614,16.139,30.36,14,0,3.19,LY,1717880075
424,sarayonu,38.262,32.4046,14.79,80,100,2.17,TR,1717880075
425,great falls,47.5002,-111.3008,22.87,40,0,2.57,US,1717880075
426,merizo village,13.2658,144.6691,28.32,92,73,4.02,GU,1717880075
427,pemba,-12.974,40.5178,26.39,78,20,4.63,MZ,1717880076
428,hami,42.8,93.45,26.46,15,100,7.34,CN,1717880076
429,ketchikan,55.3422,-131.6461,22.26,35,40,7.2,US,1717879953
430,ocos,14.5094,-92.1933,27.16,84,100,4.27,GT,1717880076
431,menaka,15.9182,2.4022,35.18,29,98,5.23,ML,1717880076
432,severo-yeniseyskiy,60.3725,93.0408,11.43,70,100,4.02,RU,1717880076
433,pangody,65.85,74.4859,3.81,83,48,3.44,RU,1717880076
434,puerto asis,0.5133,-76.5007,23.4,92,99,1.42,CO,1717880077
435,egilsstadir,65.2653,-14.3948,5.95,75,75,1.54,IS,1717880077
436,turabah,21.2141,41.6331,30.1,22,0,3.69,SA,1717880077
437,geraldton,-28.7667,114.6,22.23,73,75,7.72,AU,1717880077
438,piacabucu,-10.4056,-36.4344,24.52,89,2,3.34,BR,1717880077
439,wenchang,30.904,118.4887,23.26,73,98,0.61,CN,1717880078
440,kharkhorin,47.1975,102.8238,12.09,58,100,0.63,MN,1717880078
441,nyirtelek,48.0167,21.6333,19.84,75,82,3.5,HU,1717880078
442,yaren,-0.5472,166.916,29.57,71,83,5.92,NR,1717880078
443,anjiang,27.3194,110.1031,19.69,98,100,1.36,CN,1717880078
444,manay,7.215,126.5397,24.66,79,94,1.75,PH,1717880078
445,san carlos,9.6612,-68.5827,27.25,86,83,1.53,VE,1717880079
446,kalymnos,36.95,26.9833,26.74,50,0,5.66,GR,1717880079
447,tsiombe,-25.3,45.4833,18.9,63,100,5.43,MG,1717880079
448,bartlesville,36.7473,-95.9808,34.97,58,0,4.63,US,1717879980
449,laojunmiao,39.8333,97.7333,17.51,25,73,1.8,CN,1717880079
450,al qubbah,32.7616,22.2424,20.33,46,0,6.13,LY,1717880079
451,muli,2.9167,73.5667,28.59,75,100,6.38,MV,1717880080
452,cotoca,-17.8167,-63.05,30.25,51,20,7.72,BO,1717880080
453,bastia,42.6667,9.3333,24.61,71,100,1.03,FR,1717880080
454,santa luzia,-19.7697,-43.8514,24.6,52,20,2.57,BR,1717880080
455,limbe,4.0242,9.2149,25.53,91,99,2.63,CM,1717880080
456,juneau,58.3019,-134.4197,24.0,100,75,6.69,US,1717879947
457,conduaga,8.862,117.4893,25.21,91,100,2.96,PH,1717880080
458,datca,36.7378,27.6842,24.8,62,0,6.97,TR,1717880081
459,nazyvayevsk,55.5698,71.3529,10.42,91,99,2.74,RU,1717880081
460,belmonte,-15.8631,-38.8828,23.61,87,10,3.58,BR,1717880081
461,nepanagar,21.4667,76.4,29.14,63,100,7.54,IN,1717880081
462,nova vicosa,-17.8919,-39.3719,23.39,83,13,4.54,BR,1717880081
463,bude,50.8243,-4.5413,12.12,75,3,0.45,GB,1717880081
464,dhalie,13.6957,44.7314,27.46,40,8,1.74,YE,1717880082
465,carutapera,-1.195,-46.02,25.34,91,19,3.81,BR,1717880082
466,'alaqahdari dishu,30.4374,63.313,27.34,12,0,3.79,AF,1717880082
467,xinmin,41.9908,122.8253,17.17,83,0,4.69,CN,1717880082
468,rawson,-43.3002,-65.1023,12.0,68,100,3.32,AR,1717880082
469,marsh harbour,26.5412,-77.0636,29.13,71,9,2.46,BS,1717880073
470,broome,42.2506,-75.833,23.68,59,75,5.66,US,1717880083
471,ichinoseki,38.9167,141.1333,16.74,92,100,1.18,JP,1717880083
472,amahai,-3.3333,128.9167,25.63,89,100,2.93,ID,1717880083
473,merlo,-32.3429,-65.014,20.81,60,100,4.63,AR,1717880083
474,yoloten,37.2989,62.3597,29.95,18,18,3.5,TM,1717880083
475,gamba,-2.65,10.0,22.83,86,65,2.04,GA,1717880083
476,village of oak creek (big park),34.7809,-111.7623,36.1,11,0,5.14,US,1717880083
477,rostov,57.1914,39.4139,14.76,62,74,1.29,RU,1717880084
478,manta,-0.95,-80.7333,25.88,73,75,5.14,EC,1717879835
479,mtambile,-5.3833,39.7,26.58,71,7,7.22,TZ,1717880084
480,altamont,42.2068,-121.7372,29.88,37,0,2.24,US,1717880084
481,tarija,-21.5355,-64.7296,33.95,20,77,5.14,BO,1717880084
482,nadi,-17.8,177.4167,25.0,69,40,4.63,FJ,1717880084
483,kadnikov,59.5022,40.338,13.79,79,51,1.28,RU,1717880085
484,chengde,40.9725,117.9361,16.22,53,94,1.33,CN,1717880085
485,ermelo,-26.5333,29.9833,3.52,84,42,1.79,ZA,1717880085
486,holualoa,19.6228,-155.9522,25.91,78,20,5.66,US,1717880085
487,sirte,31.2089,16.5887,23.53,59,0,4.38,LY,1717880085
488,odienne,9.51,-7.5692,26.14,70,18,2.24,CI,1717880085
489,kalodzishchy,53.944,27.7823,7.73,100,0,1.0,BY,1717880086
490,plastun,44.7561,136.2939,10.54,100,100,1.69,RU,1717880086
491,kupang,-10.1667,123.5833,25.32,94,0,3.6,ID,1717880086
492,daru,-9.0763,143.2092,25.69,87,100,7.67,PG,1717880086
493,wynyard,-41.0,145.7167,8.71,79,5,4.34,AU,1717880086
494,la ronge,55.1001,-105.2842,10.14,57,100,5.14,CA,1717880086
495,jincheng,35.5022,112.8328,20.31,33,3,1.6,CN,1717880087
496,pagadian,7.8257,123.437,24.02,92,100,0.54,PH,1717880087
497,hasaki,35.7333,140.8333,19.22,77,68,3.39,JP,1717880087
498,elverum,60.8819,11.5623,6.38,97,100,0.45,NO,1717880087
499,hirara,24.8,125.2833,27.15,100,75,2.57,JP,1717880087
500,revda,56.801,59.9303,11.56,84,95,2.15,RU,1717880087
501,santa maria do suacui,-18.1903,-42.4142,21.23,63,32,1.78,BR,1717880088
502,saint-arnoult-en-yvelines,48.5667,1.9333,15.71,77,97,3.37,FR,1717880088
503,mwanza,-2.5167,32.9,19.03,72,20,0.0,TZ,1717880088
504,juhaynah,26.6732,31.4976,35.18,23,0,5.81,EG,1717880088
505,vikulovo,56.8167,70.6107,9.88,85,70,0.54,RU,1717880088
506,vanino,49.0869,140.2543,11.63,95,97,1.04,RU,1717880088
507,tobelo,1.7284,128.0095,26.34,81,100,2.2,ID,1717880089
508,lovisa,60.4566,26.2251,9.05,82,4,3.64,FI,1717880089
509,remire-montjoly,4.9167,-52.2667,31.02,70,0,4.63,GF,1717879857
510,fengxian,34.7039,116.5872,23.82,51,82,2.76,CN,1717880089
511,vicksburg,32.3526,-90.8779,32.82,45,0,2.06,US,1717880089
512,tomelilla,55.5429,13.9546,11.03,95,100,5.36,SE,1717880089
513,markovo,57.3206,107.0881,7.42,76,22,1.68,RU,1717880089
514,saynshand,44.8824,110.1163,20.24,31,73,2.81,MN,1717880090
515,camapua,-19.5314,-54.0439,27.13,33,4,3.05,BR,1717880090
516,timimoun,29.2639,0.231,39.21,9,0,2.06,DZ,1717880090
517,tromso,69.6496,18.957,8.01,87,40,3.6,NO,1717880090
518,wiwili,13.6268,-85.8254,30.74,66,97,0.97,NI,1717880090
519,tamanrasset,22.785,5.5228,29.95,13,20,1.54,DZ,1717880091
520,bay roberts,47.5999,-53.2648,16.86,84,80,1.43,CA,1717880091
521,afaahiti,-17.75,-149.2833,24.93,84,99,4.71,PF,1717880091
522,sosnovka,56.255,51.2842,15.34,90,100,0.89,RU,1717880091
523,rikaze,29.25,88.8833,14.06,43,0,2.15,CN,1717880091
524,raymondville,26.4815,-97.7831,38.06,43,0,8.67,US,1717880091
525,pisco,-13.7,-76.2167,18.03,88,75,2.06,PE,1717880092
526,roma,43.2128,-75.4557,21.57,63,75,5.66,US,1717880092
527,namibe,-15.1961,12.1522,19.7,78,0,1.26,AO,1717880092
528,woodstock,43.1334,-80.7497,19.86,55,99,2.68,CA,1717880092
529,guantanamo,20.1444,-75.2092,30.76,75,100,2.24,CU,1717880092
530,mahibadhoo,3.7833,72.9667,28.39,76,100,5.97,MV,1717880092
531,chatra,24.2167,84.8667,29.42,34,98,2.79,IN,1717880093
532,kalmunai,7.4167,81.8167,26.38,80,100,4.7,LK,1717880093
533,port-vila,-17.7338,168.3219,22.78,88,20,1.54,VU,1717880093
534,lhokseumawe,5.1801,97.1507,26.06,84,52,2.94,ID,1717880093
535,upington,-28.4478,21.2561,9.21,43,20,0.0,ZA,1717880093
536,tarfaya,27.9358,-12.9218,20.95,83,8,3.67,MA,1717880094
537,axim,4.8699,-2.2405,26.04,85,48,5.38,GH,1717880094
538,barclayville,4.6797,-8.2339,25.43,88,81,2.57,LR,1717880094
539,ixtapa,20.7,-105.2,30.13,71,32,2.24,MX,1717879903
540,okha,53.5739,142.9478,4.58,90,87,0.89,RU,1717880094
541,tarariras,-34.2833,-57.6167,22.51,92,100,4.03,UY,1717880094
542,kayyerkan,69.3786,87.7439,1.83,100,100,4.28,RU,1717880095
543,uturoa,-16.7333,-151.4333,26.17,82,98,3.6,PF,1717880095
544,jinchang,38.4953,102.1739,19.7,36,100,2.14,CN,1717880095
545,souillac,-20.5167,57.5167,23.21,88,75,3.6,MU,1717880095
546,vega de alatorre,20.0333,-96.6333,31.29,67,42,5.38,MX,1717880095
547,road town,18.4167,-64.6167,30.02,74,40,4.12,VG,1717880095
548,susuman,62.7833,148.1667,1.1,77,100,3.58,RU,1717880096
549,metkovic,43.0542,17.6483,22.26,66,34,1.36,HR,1717880096
550,queenstown,-31.8976,26.8753,7.57,69,8,1.03,ZA,1717880096
551,the pas,53.8251,-101.2541,9.01,87,100,4.63,CA,1717880096
552,san pedro pochutla,15.7333,-96.4667,30.55,62,100,3.63,MX,1717880096
553,ariquemes,-9.9133,-63.0408,30.84,48,0,1.57,BR,1717880096
554,palafrugell,41.9174,3.1631,21.54,46,100,3.58,ES,1717880097
555,hanzhong,33.0728,107.0303,15.36,87,65,0.51,CN,1717880097
556,usinsk,65.9939,57.5281,2.82,85,6,4.92,RU,1717880097
557,bandon,51.7469,-8.7425,11.77,81,6,4.75,IE,1717880097
558,pyapon,16.2833,95.6833,25.49,94,87,2.45,MM,1717880097
559,agadez,19.75,10.25,33.83,11,0,4.34,NE,1717880097
560,i-n-salah,27.1935,2.4607,38.49,9,18,1.96,DZ,1717880098
561,yancheng,33.3856,120.1253,23.29,58,100,2.4,CN,1717880098
562,ratzeburg,53.7,10.7667,11.9,64,100,1.54,DE,1717880098
563,al qaryatayn,34.2296,37.2407,26.91,26,37,3.08,SY,1717880098
564,bliss corner,41.6118,-70.9384,25.04,61,100,6.69,US,1717880098
565,usuki,33.1081,131.7878,19.01,98,100,5.15,JP,1717880098
566,cuatro cienegas de carranza,26.9833,-102.0833,36.46,23,88,3.61,MX,1717880099
567,piti village,13.4626,144.6933,28.5,88,0,1.54,GU,1717880099
568,tambopata,-12.7333,-69.1833,31.94,48,20,2.06,PE,1717880099
569,sao cristovao,-11.0147,-37.2064,26.95,74,40,4.12,BR,1717880099
570,santiago,-33.4569,-70.6483,17.47,63,100,3.6,CL,1717879849
571,prince rupert,54.3161,-130.3201,18.05,60,75,4.63,CA,1717879804
572,energetik,51.7445,58.7934,16.41,88,26,2.95,RU,1717880100
573,birniwa,12.7903,10.2348,34.77,33,66,6.46,NG,1717880100
